[{"city":"Salamanca","country":"Spain","iso":"ES","flags":["been"],"lat":40.96427,"lng":-5.66385,"name":"Salamanca, Spain"},{"city":"Dortmund","country":"Germany","iso":"DE","flags":["been"],"lat":51.51661,"lng":7.4583,"name":"Dortmund, Germany"},{"city":"Frederikshavn","country":"Denmark","iso":"DK","flags":["been"],"lat":57.44707,"lng":10.530396,"name":"Frederikshavn, Denmark"},{"city":"Cologne","country":"Germany","iso":"DE","flags":["been"],"lat":50.939663,"lng":6.959839,"name":"Cologne, Germany"},{"city":"Kiev","country":"Ukraine","iso":"UA","flags":["been"],"lat":50.444885,"lng":30.536667,"name":"Kiev, Ukraine"},{"city":"Salta","country":"Argentina","iso":"AR","flags":["been"],"lat":-24.78866,"lng":-65.41018,"name":"Salta, Argentina"},{"city":"Lucca","country":"Italy","iso":"IT","flags":["been"],"lat":43.84202,"lng":10.51535,"name":"Lucca, Italy"},{"city":"Cork","country":"Ireland","iso":"IE","flags":["been"],"lat":51.891148,"lng":-8.474197,"name":"Cork, Ireland"},{"city":"Livorno","country":"Italy","iso":"IT","flags":["been"],"lat":43.549717,"lng":10.31293,"name":"Livorno, Italy"},{"city":"Flensburg","country":"Germany","iso":"DE","flags":["been"],"lat":54.786343,"lng":9.4347,"name":"Flensburg, Germany"},{"city":"Furtwangen","country":"Germany","iso":"DE","flags":["been"],"lat":48.049057,"lng":8.199312,"name":"Furtwangen, Germany"},{"city":"Kiel","country":"Germany","iso":"DE","flags":["been"],"lat":54.32192,"lng":10.134516,"name":"Kiel, Germany"},{"city":"Florence","country":"Italy","iso":"IT","flags":["been"],"lat":43.767918,"lng":11.252379,"name":"Florence, Italy"},{"city":"Barcelona","country":"Spain","iso":"ES","flags":["been"],"lat":41.385597,"lng":2.169576,"name":"Barcelona, Spain"},{"city":"Lisbon","country":"Portugal","iso":"PT","flags":["been"],"lat":38.71211,"lng":-9.138085,"name":"Lisbon, Portugal"},{"city":"Marseille","country":"France","iso":"FR","flags":["been"],"lat":43.2964,"lng":5.37,"name":"Marseille, France"},{"city":"Datong","country":"China","iso":"CN","flags":["been"],"lat":40.07627,"lng":113.30001,"name":"Datong, China"},{"city":"New York City","country":"NY","iso":"","flags":["been"],"lat":40.713238,"lng":-74.00584,"name":"New York City, NY, USA"},{"city":"Valencia","country":"Spain","iso":"ES","flags":["been"],"lat":39.473854,"lng":-0.377154,"name":"Valencia, Spain"},{"city":"Catania","country":"Italy","iso":"IT","flags":["been"],"lat":37.508392,"lng":15.080838,"name":"Catania, Italy"},{"city":"Kollum","country":"The Netherlands","iso":"NL","flags":["been"],"lat":53.27695,"lng":6.15293,"name":"Kollum, The Netherlands"},{"city":"La Serena","country":"Chile","iso":"CL","flags":["been"],"lat":-29.90267,"lng":-71.25127,"name":"La Serena, Chile"},{"city":"Latour-de-Carol","country":"France","iso":"FR","flags":["been"],"lat":42.46519,"lng":1.89037,"name":"Latour-de-Carol, France"},{"city":"Warsaw","country":"Poland","iso":"PL","flags":["been"],"lat":52.22875,"lng":21.00625,"name":"Warsaw, Poland"},{"city":"Calais","country":"France","iso":"FR","flags":["been"],"lat":50.95326,"lng":1.854357,"name":"Calais, France"},{"city":"Rostock","country":"Germany","iso":"DE","flags":["been"],"lat":54.087986,"lng":12.13723,"name":"Rostock, Germany"},{"city":"Brasov","country":"Romania","iso":"RO","flags":["been"],"lat":45.64233,"lng":25.58853,"name":"Brasov, Romania"},{"city":"Newcastle upon Tyne","country":"UK","iso":"GB","flags":["been"],"lat":54.972885,"lng":-1.618424,"name":"Newcastle upon Tyne, UK"},{"city":"Renesse","country":"The Netherlands","iso":"NL","flags":["been"],"lat":51.73223,"lng":3.77436,"name":"Renesse, The Netherlands"},{"city":"Dokkum","country":"The Netherlands","iso":"NL","flags":["been"],"lat":53.324997,"lng":5.998067,"name":"Dokkum, The Netherlands"},{"city":"Ohakune","country":"New Zealand","iso":"NZ","flags":["been"],"lat":-39.417824,"lng":175.39963,"name":"Ohakune, New Zealand"},{"city":"Constanta","country":"Romania","iso":"RO","flags":["been"],"lat":44.17714,"lng":28.65308,"name":"Constanta, Romania"},{"city":"Fox Glacier","country":"New Zealand","iso":"NZ","flags":["been"],"lat":-43.46552,"lng":170.01831,"name":"Fox Glacier, New Zealand"},{"city":"Oswiecim","country":"Poland","iso":"PL","flags":["been"],"lat":50.036472,"lng":19.25247,"name":"Oswiecim, Poland"},{"city":"Cape Town Central","country":"South Africa","iso":"ZA","flags":["want"],"lat":-33.918163,"lng":18.424736,"name":"Cape Town Central, South Africa"},{"city":"Leipzig","country":"Germany","iso":"DE","flags":["been"],"lat":51.344887,"lng":12.386192,"name":"Leipzig, Germany"},{"city":"Olbia","country":"Italy","iso":"IT","flags":["been"],"lat":40.922207,"lng":9.5003,"name":"Olbia, Italy"},{"city":"Copenhagen","country":"Denmark","iso":"DK","flags":["been"],"lat":55.67502,"lng":12.580593,"name":"Copenhagen, Denmark"},{"city":"Coquimbo","country":"Chile","iso":"CL","flags":["been"],"lat":-29.9604,"lng":-71.33852,"name":"Coquimbo, Chile"},{"city":"Bondi","country":"Australia","iso":"AU","flags":["been"],"lat":-33.895325,"lng":151.26826,"name":"Bondi, Australia"},{"city":"Madrid","country":"Spain","iso":"ES","flags":["been"],"lat":40.41471,"lng":-3.700708,"name":"Madrid, Spain"},{"city":"Orosei","country":"Italy","iso":"IT","flags":["been"],"lat":40.378716,"lng":9.694828,"name":"Orosei, Italy"},{"city":"Ystad","country":"Sweden","iso":"SE","flags":["been"],"lat":55.43124,"lng":13.82827,"name":"Ystad, Sweden"},{"city":"Helsinki","country":"Finland","iso":"FI","flags":["been"],"lat":60.16798,"lng":24.940203,"name":"Helsinki, Finland"},{"city":"Cleveland","country":"OH","iso":"","flags":["been"],"lat":41.49958,"lng":-81.69382,"name":"Cleveland, OH, USA"},{"city":"Vina del Mar","country":"Chile","iso":"CL","flags":["been"],"lat":-33.02397,"lng":-71.5522,"name":"Vina del Mar, Chile"},{"city":"Bucharest","country":"Romania","iso":"RO","flags":["been"],"lat":44.42677,"lng":26.103397,"name":"Bucharest, Romania"},{"city":"Shanghai","country":"China","iso":"CN","flags":["been"],"lat":31.234953,"lng":121.48737,"name":"Shanghai, China"},{"city":"Arcachon","country":"France","iso":"FR","flags":["been"],"lat":44.652786,"lng":-1.179532,"name":"Arcachon, France"},{"city":"Montpellier","country":"France","iso":"FR","flags":["been"],"lat":43.606926,"lng":3.880531,"name":"Montpellier, France"},{"city":"Rome","country":"Italy","iso":"IT","flags":["been"],"lat":41.893623,"lng":12.495978,"name":"Rome, Italy"},{"city":"Sarajevo","country":"Bosnia and Herzegovina","iso":"BA","flags":["been"],"lat":43.86231,"lng":18.432571,"name":"Sarajevo, Bosnia and Herzegovina"},{"city":"Suzhou","country":"China","iso":"CN","flags":["been"],"lat":31.26269,"lng":121.07674,"name":"Suzhou, China"},{"city":"Helgoland","country":"Germany","iso":"DE","flags":["been"],"lat":54.18147,"lng":7.89033,"name":"Helgoland, Germany"},{"city":"Cecina","country":"Italy","iso":"IT","flags":["been"],"lat":43.3107,"lng":10.523853,"name":"Cecina, Italy"},{"city":"Mostar","country":"Bosnia and Herzegovina","iso":"BA","flags":["been"],"lat":43.34368,"lng":17.80821,"name":"Mostar, Bosnia and Herzegovina"},{"city":"Beijing","country":"China","iso":"CN","flags":["been"],"lat":39.909336,"lng":116.39452,"name":"Beijing, China"},{"city":"Augsburg","country":"Germany","iso":"DE","flags":["been"],"lat":48.369976,"lng":10.88333,"name":"Augsburg, Germany"},{"city":"Brussels","country":"Belgium","iso":"BE","flags":["been"],"lat":50.849632,"lng":4.351959,"name":"Brussels, Belgium"},{"city":"Monte-Carlo","country":"Monaco","iso":"MC","flags":["been"],"lat":43.7383,"lng":7.42696,"name":"Monte-Carlo, Monaco"},{"city":"Nuremberg","country":"Germany","iso":"DE","flags":["been"],"lat":49.446163,"lng":11.07039,"name":"Nuremberg, Germany"},{"city":"Stockholm","country":"Sweden","iso":"SE","flags":["been"],"lat":59.330135,"lng":18.06151,"name":"Stockholm, Sweden"},{"city":"Dresden","country":"Germany","iso":"DE","flags":["been"],"lat":51.050453,"lng":13.73823,"name":"Dresden, Germany"},{"city":"Vatican City","country":"Vatican City","iso":"VA","flags":["been"],"lat":41.902363,"lng":12.454423,"name":"Vatican City, Vatican City"},{"city":"Munich","country":"Germany","iso":"DE","flags":["been"],"lat":48.13641,"lng":11.57753,"name":"Munich, Germany"},{"city":"Vaxjo","country":"Sweden","iso":"SE","flags":["been"],"lat":56.87996,"lng":14.79945,"name":"Vaxjo, Sweden"},{"city":"Greymouth","country":"New Zealand","iso":"NZ","flags":["been"],"lat":-42.450237,"lng":171.20314,"name":"Greymouth, New Zealand"},{"city":"Playa de Palma","country":"Spain","iso":"ES","flags":["been"],"lat":39.525715,"lng":2.73611,"name":"Playa de Palma, Spain"},{"city":"Kalmar","country":"Sweden","iso":"SE","flags":["been"],"lat":56.66613,"lng":16.36395,"name":"Kalmar, Sweden"},{"city":"Liverpool","country":"UK","iso":"GB","flags":["been"],"lat":53.406662,"lng":-2.974251,"name":"Liverpool, UK"},{"city":"Kaikoura","country":"New Zealand","iso":"NZ","flags":["been"],"lat":-42.40858,"lng":173.67859,"name":"Kaikoura, New Zealand"},{"city":"London","country":"UK","iso":"GB","flags":["been"],"lat":51.51924,"lng":-0.096654,"name":"London, UK"},{"city":"Listvyanka","country":"Russia","iso":"RU","flags":["been"],"lat":51.84828,"lng":104.87136,"name":"Listvyanka, Russia"},{"city":"Tallinn","country":"Estonia","iso":"EE","flags":["been"],"lat":59.43641,"lng":24.7526,"name":"Tallinn, Estonia"},{"city":"Mount Maunganui","country":"New Zealand","iso":"NZ","flags":["been"],"lat":-37.63952,"lng":176.18474,"name":"Mount Maunganui, New Zealand"},{"city":"Bad Frankenhausen","country":"Germany","iso":"DE","flags":["been"],"lat":51.35729,"lng":11.09631,"name":"Bad Frankenhausen, Germany"},{"city":"Vimmerby","country":"Sweden","iso":"SE","flags":["been"],"lat":57.66748,"lng":15.85453,"name":"Vimmerby, Sweden"},{"city":"Irkutsk","country":"Russia","iso":"RU","flags":["been"],"lat":52.29778,"lng":104.29639,"name":"Irkutsk, Russia"},{"city":"Bastia","country":"France","iso":"FR","flags":["been"],"lat":42.6999,"lng":9.44988,"name":"Bastia, France"},{"city":"Castiglione Della Pescaia","country":"Italy","iso":"IT","flags":["been"],"lat":42.763542,"lng":10.880054,"name":"Castiglione Della Pescaia, Italy"},{"city":"Muenster","country":"Germany","iso":"DE","flags":["been"],"lat":51.96149,"lng":7.622354,"name":"Muenster, Germany"},{"city":"Amsterdam","country":"The Netherlands","iso":"NL","flags":["been"],"lat":52.37,"lng":4.89,"name":"Amsterdam, The Netherlands"},{"city":"Paris","country":"France","iso":"FR","flags":["been"],"lat":48.857037,"lng":2.349401,"name":"Paris, France"},{"city":"The Hague","country":"The Netherlands","iso":"NL","flags":["been"],"lat":52.076355,"lng":4.310603,"name":"The Hague, The Netherlands"},{"city":"Naples","country":"Italy","iso":"IT","flags":["been"],"lat":40.840416,"lng":14.252355,"name":"Naples, Italy"},{"city":"Rotterdam","country":"The Netherlands","iso":"NL","flags":["been"],"lat":51.920525,"lng":4.480866,"name":"Rotterdam, The Netherlands"},{"city":"Portsmouth","country":"UK","iso":"GB","flags":["been"],"lat":50.802788,"lng":-1.086526,"name":"Portsmouth, UK"},{"city":"Picton","country":"New Zealand","iso":"NZ","flags":["been"],"lat":-41.28883,"lng":174.00539,"name":"Picton, New Zealand"},{"city":"Zurich","country":"Switzerland","iso":"CH","flags":["been"],"lat":47.374664,"lng":8.539639,"name":"Zurich, Switzerland"},{"city":"Moscow","country":"Russia","iso":"RU","flags":["been"],"lat":55.751865,"lng":37.622437,"name":"Moscow, Russia"},{"city":"Lyon","country":"France","iso":"FR","flags":["been"],"lat":45.755955,"lng":4.832282,"name":"Lyon, France"},{"city":"Dubrovnik","country":"Croatia","iso":"HR","flags":["been"],"lat":42.653934,"lng":18.079966,"name":"Dubrovnik, Croatia"},{"city":"Akaroa","country":"New Zealand","iso":"NZ","flags":["been"],"lat":-43.803658,"lng":172.96826,"name":"Akaroa, New Zealand"},{"city":"Schierke","country":"Germany","iso":"DE","flags":["been"],"lat":51.76587,"lng":10.65524,"name":"Schierke, Germany"},{"city":"Dublin","country":"Ireland","iso":"IE","flags":["been"],"lat":53.345966,"lng":-6.25341,"name":"Dublin, Ireland"},{"city":"Hot Water Beach","country":"New Zealand","iso":"NZ","flags":["been"],"lat":-36.88819,"lng":175.8202,"name":"Hot Water Beach, New Zealand"},{"city":"Malmo","country":"Sweden","iso":"SE","flags":["been"],"lat":55.597195,"lng":12.998863,"name":"Malmo, Sweden"},{"city":"Pisa","country":"Italy","iso":"IT","flags":["been"],"lat":43.71651,"lng":10.400349,"name":"Pisa, Italy"},{"city":"Jurmala","country":"Latvia","iso":"LV","flags":["been"],"lat":56.9619,"lng":23.72264,"name":"Jurmala, Latvia"},{"city":"Galway","country":"Ireland","iso":"IE","flags":["been"],"lat":53.27815,"lng":-9.050388,"name":"Galway, Ireland"},{"city":"San Pedro de Atacama","country":"Chile","iso":"CL","flags":["been"],"lat":-22.910463,"lng":-68.19538,"name":"San Pedro de Atacama, Chile"},{"city":"Riga","country":"Latvia","iso":"LV","flags":["been"],"lat":56.94834,"lng":24.107779,"name":"Riga, Latvia"},{"city":"Derry","country":"UK","iso":"GB","flags":["been"],"lat":54.99243,"lng":-7.31921,"name":"Derry, UK"},{"city":"Toulouse","country":"France","iso":"FR","flags":["been"],"lat":43.603947,"lng":1.44303,"name":"Toulouse, France"},{"city":"Buenos Aires","country":"Argentina","iso":"AR","flags":["been"],"lat":-34.58881,"lng":-58.39562,"name":"Buenos Aires, Argentina"},{"city":"Stuttgart","country":"Germany","iso":"DE","flags":["been"],"lat":48.781322,"lng":9.183353,"name":"Stuttgart, Germany"},{"city":"Chicago","country":"IL","iso":"","flags":["been"],"lat":41.878407,"lng":-87.62568,"name":"Chicago, IL, USA"},{"city":"Bergen","country":"Norway","iso":"NO","flags":["been"],"lat":60.38918,"lng":5.331452,"name":"Bergen, Norway"},{"city":"Mannheim","country":"Germany","iso":"DE","flags":["been"],"lat":49.48651,"lng":8.46678,"name":"Mannheim, Germany"},{"city":"San Sebastian - Donostia","country":"Spain","iso":"ES","flags":["been"],"lat":43.317516,"lng":-1.975921,"name":"San Sebastian - Donostia, Spain"},{"city":"Birmingham","country":"UK","iso":"GB","flags":["been"],"lat":52.48399,"lng":-1.888948,"name":"Birmingham, UK"},{"city":"Lagos","country":"Portugal","iso":"PT","flags":["been"],"lat":37.105007,"lng":-8.67513,"name":"Lagos, Portugal"},{"city":"Lille","country":"France","iso":"FR","flags":["been"],"lat":50.636906,"lng":3.065442,"name":"Lille, France"},{"city":"Bilbao","country":"Spain","iso":"ES","flags":["been"],"lat":43.262074,"lng":-2.931721,"name":"Bilbao, Spain"},{"city":"Avignon","country":"France","iso":"FR","flags":["been"],"lat":43.947704,"lng":4.806896,"name":"Avignon, France"},{"city":"Potsdam","country":"Germany","iso":"DE","flags":["been"],"lat":52.39935,"lng":13.04793,"name":"Potsdam, Germany"},{"city":"Hamburg","country":"Germany","iso":"DE","flags":["been"],"lat":53.55556,"lng":10.013171,"name":"Hamburg, Germany"},{"city":"Airlie Beach","country":"Australia","iso":"AU","flags":["been"],"lat":-20.269703,"lng":148.71977,"name":"Airlie Beach, Australia"},{"city":"Rotorua","country":"New Zealand","iso":"NZ","flags":["been"],"lat":-38.136536,"lng":176.25145,"name":"Rotorua, New Zealand"},{"city":"Taupo","country":"New Zealand","iso":"NZ","flags":["been"],"lat":-38.689762,"lng":176.07594,"name":"Taupo, New Zealand"},{"city":"Istanbul","country":"Turkey","iso":"TR","flags":["been"],"lat":41.00986,"lng":28.95707,"name":"Istanbul, Turkey"},{"city":"Santiago","country":"Chile","iso":"CL","flags":["been"],"lat":-33.43771,"lng":-70.64779,"name":"Santiago, Chile"},{"city":"Katherine","country":"Australia","iso":"AU","flags":["been"],"lat":-14.46397,"lng":132.26505,"name":"Katherine, Australia"},{"city":"Wellington","country":"New Zealand","iso":"NZ","flags":["been"],"lat":-41.286087,"lng":174.77695,"name":"Wellington, New Zealand"},{"city":"Valparaiso","country":"Chile","iso":"CL","flags":["been"],"lat":-33.04531,"lng":-71.62038,"name":"Valparaiso, Chile"},{"city":"Blenheim","country":"New Zealand","iso":"NZ","flags":["been"],"lat":-41.51191,"lng":173.95515,"name":"Blenheim, New Zealand"},{"city":"Christchurch","country":"New Zealand","iso":"NZ","flags":["been"],"lat":-43.532024,"lng":172.63718,"name":"Christchurch, New Zealand"},{"city":"Belfast","country":"UK","iso":"GB","flags":["been"],"lat":54.59679,"lng":-5.930921,"name":"Belfast, UK"},{"city":"Vilnius","country":"Lithuania","iso":"LT","flags":["been"],"lat":54.69059,"lng":25.26981,"name":"Vilnius, Lithuania"},{"city":"Freiburg im Breisgau","country":"Germany","iso":"DE","flags":["been"],"lat":47.998714,"lng":7.851038,"name":"Freiburg im Breisgau, Germany"},{"city":"Zakopane","country":"Poland","iso":"PL","flags":["been"],"lat":49.29524,"lng":19.95312,"name":"Zakopane, Poland"},{"city":"Kaliningrad","country":"Russia","iso":"RU","flags":["been"],"lat":54.70905,"lng":20.50595,"name":"Kaliningrad, Russia"},{"city":"Oslo","country":"Norway","iso":"NO","flags":["been"],"lat":59.91173,"lng":10.750844,"name":"Oslo, Norway"},{"city":"Hanmer Springs","country":"New Zealand","iso":"NZ","flags":["been"],"lat":-42.52297,"lng":172.82918,"name":"Hanmer Springs, New Zealand"},{"city":"Bremen","country":"Germany","iso":"DE","flags":["been"],"lat":53.083763,"lng":8.819797,"name":"Bremen, Germany"},{"city":"Nykoping","country":"Sweden","iso":"SE","flags":["been"],"lat":58.75326,"lng":17.00923,"name":"Nykoping, Sweden"},{"city":"San Francisco","country":"CA","iso":"","flags":["been"],"lat":37.778934,"lng":-122.41579,"name":"San Francisco, CA, USA"},{"city":"Berlin","country":"Germany","iso":"DE","flags":["been"],"lat":52.51959,"lng":13.397209,"name":"Berlin, Germany"},{"city":"Mariestad","country":"Sweden","iso":"SE","flags":["been"],"lat":58.710266,"lng":13.822889,"name":"Mariestad, Sweden"},{"city":"Colonia del Sacramento","country":"Uruguay","iso":"UY","flags":["been"],"lat":-34.45451,"lng":-57.83755,"name":"Colonia del Sacramento, Uruguay"},{"city":"Seville","country":"Spain","iso":"ES","flags":["been"],"lat":37.383396,"lng":-5.990674,"name":"Seville, Spain"},{"city":"Heidelberg","country":"Germany","iso":"DE","flags":["been"],"lat":49.40902,"lng":8.697485,"name":"Heidelberg, Germany"},{"city":"Tokyo","country":"Japan","iso":"JP","flags":["been"],"lat":35.680565,"lng":139.759,"name":"Tokyo, Japan"},{"city":"Skagen","country":"Denmark","iso":"DK","flags":["been"],"lat":57.72481,"lng":10.59614,"name":"Skagen, Denmark"},{"city":"Queenstown","country":"New Zealand","iso":"NZ","flags":["been"],"lat":-45.03106,"lng":168.66235,"name":"Queenstown, New Zealand"},{"city":"Te Anau","country":"New Zealand","iso":"NZ","flags":["been"],"lat":-45.404236,"lng":167.71991,"name":"Te Anau, New Zealand"},{"city":"Prague","country":"Czech Republic","iso":"CZ","flags":["been"],"lat":50.076847,"lng":14.427817,"name":"Prague, Czech Republic"},{"city":"Lake Tekapo","country":"New Zealand","iso":"NZ","flags":["been"],"lat":-44.005653,"lng":170.4839,"name":"Lake Tekapo, New Zealand"},{"city":"Strasbourg","country":"France","iso":"FR","flags":["been"],"lat":48.583153,"lng":7.7636,"name":"Strasbourg, France"},{"city":"Hannover","country":"Germany","iso":"DE","flags":["been","fave"],"lat":52.371662,"lng":9.735982,"name":"Hannover, Germany"},{"city":"Cordoba","country":"Argentina","iso":"AR","flags":["been"],"lat":-31.40716,"lng":-64.18567,"name":"Cordoba, Argentina"},{"city":"Crespina","country":"Italy","iso":"IT","flags":["been"],"lat":43.5768,"lng":10.56142,"name":"Crespina, Italy"},{"city":"Brindisi","country":"Italy","iso":"IT","flags":["been"],"lat":40.6347,"lng":17.94023,"name":"Brindisi, Italy"},{"city":"Basel","country":"Switzerland","iso":"CH","flags":["been"],"lat":47.56868,"lng":7.587512,"name":"Basel, Switzerland"},{"city":"Bordeaux","country":"France","iso":"FR","flags":["been"],"lat":44.841103,"lng":-0.580674,"name":"Bordeaux, France"},{"city":"Wanaka","country":"New Zealand","iso":"NZ","flags":["been"],"lat":-44.697247,"lng":169.13551,"name":"Wanaka, New Zealand"},{"city":"Franz Josef","country":"New Zealand","iso":"NZ","flags":["been"],"lat":-43.38766,"lng":170.18181,"name":"Franz Josef, New Zealand"},{"city":"Nice","country":"France","iso":"FR","flags":["been"],"lat":43.700638,"lng":7.276729,"name":"Nice, France"},{"city":"Esbjerg","country":"Denmark","iso":"DK","flags":["been"],"lat":55.46529,"lng":8.45692,"name":"Esbjerg, Denmark"},{"city":"Gothenburg","country":"Sweden","iso":"SE","flags":["been"],"lat":57.70382,"lng":11.972486,"name":"Gothenburg, Sweden"},{"city":"Venice","country":"Italy","iso":"IT","flags":["been"],"lat":45.439087,"lng":12.323647,"name":"Venice, Italy"},{"city":"Yokohama","country":"Japan","iso":"JP","flags":["been"],"lat":35.454258,"lng":139.56802,"name":"Yokohama, Japan"},{"city":"Schiermonnikoog","country":"The Netherlands","iso":"NL","flags":["been"],"lat":53.47724,"lng":6.16124,"name":"Schiermonnikoog, The Netherlands"},{"city":"Tarragona","country":"Spain","iso":"ES","flags":["been"],"lat":41.116333,"lng":1.248222,"name":"Tarragona, Spain"},{"city":"Flam","country":"Norway","iso":"NO","flags":["been"],"lat":60.83897,"lng":7.12124,"name":"Flam, Norway"},{"city":"Hallig Hooge","country":"Germany","iso":"DE","flags":["been"],"lat":54.56544,"lng":8.54807,"name":"Hallig Hooge, Germany"},{"city":"Ulaanbaatar","country":"Mongolia","iso":"MN","flags":["been"],"lat":47.92211,"lng":106.91698,"name":"Ulaanbaatar, Mongolia"},{"city":"Vienna","country":"Austria","iso":"AT","flags":["been"],"lat":48.208862,"lng":16.372383,"name":"Vienna, Austria"},{"city":"Tirrenia","country":"Italy","iso":"IT","flags":["been"],"lat":43.628094,"lng":10.29188,"name":"Tirrenia, Italy"},{"city":"Krakow","country":"Poland","iso":"PL","flags":["been"],"lat":50.06046,"lng":19.9324,"name":"Krakow, Poland"},{"city":"Manchester","country":"UK","iso":"GB","flags":["been"],"lat":53.476948,"lng":-2.247661,"name":"Manchester, UK"},{"city":"Patras","country":"Greece","iso":"GR","flags":["been"],"lat":38.246235,"lng":21.735107,"name":"Patras, Greece"},{"city":"Athens","country":"Greece","iso":"GR","flags":["been"],"lat":37.97698,"lng":23.721302,"name":"Athens, Greece"},{"city":"Sydney","country":"Australia","iso":"AU","flags":["been"],"lat":-33.870037,"lng":151.20955,"name":"Sydney, Australia"},{"city":"Alice Springs","country":"Australia","iso":"AU","flags":["been"],"lat":-23.70267,"lng":133.88133,"name":"Alice Springs, Australia"},{"city":"Darwin","country":"Australia","iso":"AU","flags":["been"],"lat":-12.460347,"lng":130.84166,"name":"Darwin, Australia"},{"city":"Hirtshals","country":"Denmark","iso":"DK","flags":["been"],"lat":57.58847,"lng":9.96,"name":"Hirtshals, Denmark"},{"city":"Bratislava","country":"Slovakia","iso":"SK","flags":["been"],"lat":48.149662,"lng":17.108503,"name":"Bratislava, Slovakia"},{"city":"Brisbane","country":"Australia","iso":"AU","flags":["been"],"lat":-27.4681,"lng":153.02197,"name":"Brisbane, Australia"},{"city":"Perth","country":"Australia","iso":"AU","flags":["been"],"lat":-31.955471,"lng":115.86148,"name":"Perth, Australia"},{"city":"Hangzhou","country":"China","iso":"CN","flags":["been"],"lat":30.27296,"lng":120.15567,"name":"Hangzhou, China"},{"city":"Los Angeles","country":"CA","iso":"","flags":["been"],"lat":34.05106,"lng":-118.23284,"name":"Los Angeles, CA, USA"},{"city":"Budapest","country":"Hungary","iso":"HU","flags":["been"],"lat":47.49346,"lng":19.0507,"name":"Budapest, Hungary"},{"city":"Auckland Central","country":"New Zealand","iso":"NZ","flags":["been"],"lat":-36.849407,"lng":174.76103,"name":"Auckland Central, New Zealand"},{"city":"Luneburg","country":"Germany","iso":"DE","flags":["been"],"lat":53.24759,"lng":10.41414,"name":"Luneburg, Germany"}]
